     2.11           OBSERVATION DATA    G (GPS)             RINEX VERSION / TYPE
teqc  2019Feb25     Mike Craymer        20250320 02:05:01UTCPGM / RUN BY / DATE
Linux 2.4.21-27.ELsmp|Opteron|gcc -static|Linux 64|=+       COMMENT
   0.100      (antenna height)                              COMMENT
 +45.58501118 (latitude)                                    COMMENT
 -75.80732353 (longitude)                                   COMMENT
0236.051      (elevation)                                   COMMENT
BIT 2 OF LLI FLAGS DATA COLLECTED UNDER A/S CONDITION       COMMENT
CAGS (COGO code)                                            COMMENT
CAGS                                                        MARKER NAME
40147M001                                                   MARKER NUMBER
MRC                 NRCan/GSD                               OBSERVER / AGENCY
4931K62905          TRIMBLE NETR8       48.01               REC # / TYPE / VERS
4926353381          TRM59800.00     NONE                    ANT # / TYPE
  1096349.1598 -4335060.6685  4533255.2278                  APPROX POSITION XYZ
        0.1000        0.0000        0.0000                  ANTENNA: DELTA H/E/N
     1     1                                                WAVELENGTH FACT L1/2
     7    L1    L2    L5    C1    P2    S1    S2            # / TYPES OF OBSERV
    30.0000                                                 INTERVAL
    18                                                      LEAP SECONDS
This data is subject to the Open Government Licence -Canada COMMENT
http://open.canada.ca/en/open-government-licence-canada     COMMENT
 SNR is mapped to RINEX snr flag value [0-9]                COMMENT
  L1 & L2: min(max(int(snr_dBHz/6), 0), 9)                  COMMENT
  2025     3    19     0     0    0.0000000     GPS         TIME OF FIRST OBS
                                                            END OF HEADER
 25  3 19  0  0  0.0000000  0 11G29G05G20G13G11G15G25G07G18G06G30
 112409571.547 8  87591970.10047                  21390819.477    21390829.273
        48.300          46.300
 106481469.251 8  82972712.15348                  20262711.352    20262720.738
        52.200          52.800
 108929841.034 8  84880495.08346                  20728616.430    20728625.289
        49.900          41.600
 116964971.823 7  91141580.18644                  22257666.445    22257677.355
        44.700          28.900
 115515393.845 7  90012084.24245                  21981803.500    21981813.941
        47.900          35.800
 127052883.158 6  99002316.44445                  24177340.992    24177357.648
        39.700          30.700
 129085358.31414                                  24564132.281
        25.300
 134652891.912 5                                  25623607.141
        31.300
 132209902.313 5                                  25158705.398
        33.200
 128636280.011 6 100236235.58244                  24478637.563    24478651.992
        39.400          29.800
 134198510.44715                                  25537126.633
        30.300
 25  3 19  0  0 30.0000000  0 10G29G05G20G13G11G15G07G18G06G30
 112362223.509 7  87555075.60247                  21381809.148    21381819.473
        47.600          46.300
 106460316.181 8  82956229.24848                  20258686.063    20258695.391
        51.500          52.800
 108974746.504 8  84915486.35846                  20737162.203    20737170.359
        48.800          41.300
 116863878.838 7  91062806.58844                  22238428.984    22238440.422
        44.600          28.500
 115580639.908 7  90062925.30945                  21994219.477    21994229.742
        47.200          35.300
 126930740.484 6  98907140.70245                  24154099.172    24154114.129
        40.400          30.900
 134618992.47915 104898013.45152                  25617157.242    25617166.629
        32.900          15.600
 132114084.364 5                                  25140472.914
        33.700
 128726104.952 6 100306228.87645                  24495730.813    24495746.121
        39.000          30.400
 134131336.345 5 104517976.95653                  25524344.516    25524360.586
        32.300          19.000
 25  3 19  0  1  0.0000000  0 10G29G05G20G13G11G15G07G18G06G30
 112315408.121 8  87518596.15847                  21372900.461    21372910.199
        48.700          46.100
 106439601.856 8  82940088.24748                  20254744.344    20254753.672
        51.100          52.900
 109019945.692 8  84950706.51746                  20745763.305    20745771.520
        49.600          41.100
 116763093.715 7  90984272.87344                  22219249.805    22219262.004
        44.600          28.900
 115646147.048 7  90113969.80245                  22006684.859    22006695.652
        47.000          35.800
 126808652.178 6  98812007.32445                  24130866.086    24130880.867
        40.600          31.100
 134585459.659 5 104871884.13342                  25610777.125    25610785.105
        33.700          16.300
 132018250.485 5                                  25122233.195
        31.000
 128816038.102 6 100376306.50244                  24512844.555    24512859.863
        39.000          29.800
 134064342.226 5 104465773.85042                  25511596.391    25511611.699
        32.600          17.800
 25  3 19  0  1 30.0000000  0 10G29G05G20G13G11G15G07G18G06G30
 112269127.945 8  87482533.76147                  21364093.281    21364103.137
        49.200          46.300
 106419326.369 8  82924289.17748                  20250886.320    20250895.180
        51.800          53.000
 109065438.343 8  84986155.36046                  20754419.773    20754429.102
        49.300          40.900
 116662620.276 7  90905982.04645                  22200130.320    22200141.465
        44.800          30.100
 115711915.505 7  90165217.92745                  22019200.750    22019210.957
        47.200          35.700
 126686621.303 6  98716918.69745                  24107643.500    24107658.691
        40.700          30.200
 134552294.99915 104846041.52352                  25604463.281    25604473.957
        31.900          16.300
 131922402.129 5                                  25103993.906
        32.000
 128906079.714 6 100446468.65844                  24529978.219    24529994.523
        36.700          29.100
 133997531.629 5 104413713.69242                  25498880.367    25498898.254
        32.400          16.900
 25  3 19  0  2  0.0000000  0 10G29G05G20G13G11G15G07G18G06G30
 112223385.219 8  87446890.15647                  21355388.773    21355398.922
        48.800          46.600
 106399490.232 8  82908832.44548                  20247111.164    20247120.434
        52.400          52.900
 109111223.109 8  85021831.81246                  20763131.969    20763141.121
        49.600          41.300
 116562462.056 7  90827936.82144                  22181071.023    22181081.699
        44.800          28.500
 115777944.963 8  90216669.42845                  22031765.813    22031775.785
        48.300          35.400
 126564650.377 6  98621876.78645                  24084433.195    24084448.094
        39.700          30.900
 134519501.254 5 104820488.02142                  25598224.930    25598233.613
        32.600          16.300
 131826540.271 5                                  25085752.742
        32.400
 128996229.275 6 100516714.94444                  24547132.039    24547149.574
        36.700          28.600
 133930907.247 5 104361798.73042                  25486202.188    25486220.543
        31.900          16.900
 25  3 19  0  2 30.0000000  0 10G29G05G20G13G11G15G07G18G06G30
 112178181.522 8  87411666.57447                  21346787.125    21346796.863
        48.600          46.300
 106380092.467 8  82893717.29248                  20243420.227    20243429.203
        51.900          52.900
 109157298.637 8  85057734.84746                  20771899.859    20771908.719
        49.000          40.900
 116462622.256 7  90750139.72645                  22162072.047    22162082.664
        45.600          31.000
 115844234.848 7  90268323.85946                  22044379.992    22044390.375
        46.900          36.300
 126442742.038 6  98526883.63145                  24061233.859    24061249.227
        39.400          30.600
 134487079.657 5 104795224.54342                  25592054.805    25592063.957
        31.900          16.300
 131730665.427 5                                  25067507.969
        32.000
 129086486.133 6 100587044.82144                  24564309.711    24564324.785
        37.300          29.000
 133864471.745 5 104310030.95642                  25473561.094    25473578.629
        31.800          16.900
 25  3 19  0  3  0.0000000  0 10G29G05G20G13G11G15G07G18G06G30
 112133518.303 8  87376864.12247                  21338287.953    21338297.398
        48.800          47.000
 106361132.508 8  82878943.25048                  20239812.234    20239820.859
        52.700          53.000
 109203663.112 8  85093862.99646                  20780723.172    20780731.738
        49.700          41.600
 116363103.669 7  90672592.91944                  22143133.578    22143144.781
        45.800          29.300
 115910784.289 7  90320180.53646                  22057043.789    22057054.758
        47.700          36.200
 126320898.217 6  98431940.73145                  24038046.875    24038063.063
        39.400          30.000
 134455031.336 5 104770251.87942                  25585952.664    25585965.977
        30.800          16.900
 131634778.047 5                                  25049262.727
        33.800
 129176849.357 6 100657457.59744                  24581504.203    24581521.035
        37.700          28.100
 133798227.185 5 104258411.98142                  25460953.570    25460972.395
        31.500          17.400
 25  3 19  0  3 30.0000000  0 10G29G05G20G13G11G15G07G18G06G30
 112089398.237 8  87342484.88547                  21329891.789    21329901.820
        49.800          46.800
 106342610.292 8  82864510.31848                  20236287.375    20236296.234
        52.600          52.800
 109250315.908 8  85130215.79547                  20789600.969    20789609.711
        50.200          42.000
 116263909.658 7  90595299.01545                  22124259.063    22124268.859
        46.700          31.800
 115977593.400 8  90372239.56546                  22069757.430    22069767.578
        48.000          36.000
 126199121.824 6  98337050.36745                  24014874.133    24014889.676
        38.900          30.300
 134423358.262 5 104745571.61042                  25579929.578    25579939.023
        34.000          17.400
 131538879.452 5                                  25031015.289
        34.100
 129267318.915 6 100727953.25044                  24598719.523    24598736.824
        37.100          28.900
 133732177.12815 104206944.49452                  25448383.234    25448403.699
        30.500          16.900
 25  3 19  0  4  0.0000000  0 10G29G05G20G13G11G15G07G18G06G30
 112045822.426 8  87308529.74247                  21321599.695    21321609.434
        49.400          47.100
 106324525.303 8  82850418.12948                  20232846.094    20232855.129
        52.200          52.900
 109297255.131 8  85166791.79646                  20798533.203    20798541.770
        49.900          40.400
 116165042.885 7  90518260.10345                  22105444.453    22105455.129
        46.000          30.500
 116044661.051 7  90424500.02145                  22082520.172    22082530.789
        47.600          35.900
 126077415.027 6  98242214.22545                  23991713.852    23991729.453
        39.400          31.100
 134392061.799 5 104721184.82642                  25573973.703    25573982.445
        34.800          17.800
 131442969.728 5                                  25012760.766
        32.300
 129357893.499 6 100798530.73944                  24615957.836    24615973.438
        37.500          28.900
 133666323.33014 104155630.11852                  25435850.930    25435871.805
        29.400          17.400
 25  3 19  0  4 30.0000000  0 10G29G05G20G13G11G15G07G18G06G30
 112002793.011 8  87275000.35247                  21313411.672    21313420.941
        49.800          46.800
 106306877.603 8  82836666.71748                  20229487.391    20229496.660
        52.000          52.800
 109344479.832 8  85203590.25446                  20807519.766    20807528.801
        49.600          40.900
 116066507.207 7  90441479.19045                  22086693.508    22086704.359
        46.600          30.900
 116111987.094 8  90476961.84545                  22095331.461    22095342.547
        48.000          35.500
 125955780.580 6  98147434.47445                  23968567.609    23968582.508
        39.100          30.900
 134361143.287 6 104697092.59243                  25568089.695    25568098.848
        37.000          19.000
 131347050.105 5                                  24994507.625
        33.000
 129448572.999 5 100869189.97644                  24633211.273    24633229.453
        35.800          25.300
 133600669.11314 104104471.13252                  25423356.797    25423378.434
        29.600          16.300
 25  3 19  0  5  0.0000000  0 10G29G05G20G13G11G15G07G18G06G30
 111960312.281 8  87241898.51647                  21305327.563    21305337.359
        50.500          47.100
 106289666.808 8  82823255.75148                  20226212.469    20226221.680
        52.600          53.000
 109391989.252 8  85240610.58046                  20816560.336    20816568.668
        49.500          41.100
 115968305.856 7  90364958.78845                  22068006.367    22068017.160
        45.900          31.300
 116179571.509 7  90529624.99945                  22108192.539    22108203.684
        47.800          35.500
 125834221.373 6  98052713.34645                  23945435.086    23945450.688
        39.500          30.800
 134330605.033 5 104673296.61742                  25562275.719    25562286.980
        34.400          17.800
 131251121.652 4                                  24976251.633
        29.100
 129539357.233 5 100939930.84044                  24650487.297    24650504.422
        35.200          25.800
 133535217.40714 104053469.95952                  25410902.125    25410921.770
        29.600          14.800
 25  3 19  0  5 30.0000000  0 10G29G05G20G13G11G15G07G18G06G30
 111918382.323 8  87209225.84947                  21297348.633    21297358.195
        50.300          46.900
 106272892.366 8  82810184.76248                  20223020.906    20223029.766
        52.700          53.200
 109439782.113 8  85277851.80746                  20825654.984    20825663.961
        49.900          40.900
 115870442.226 7  90288701.55945                  22049384.617    22049394.648
        46.700          31.100
 116247413.912 7  90582489.17045                  22121102.719    22121113.570
        47.900          35.400
 125712740.308 6  97958053.08145                  23922318.453    23922333.703
        40.800          32.400
 134300448.936 5 104649798.44943                  25556538.766    25556548.035
        33.800          18.300
 131155185.50715                                  24957992.883
        30.300
 129630245.859 5 101010753.02143                  24667783.563    24667800.453
        35.700          23.600
 133469970.88415                                  25398489.906
        32.200
 25  3 19  0  6  0.0000000  0 10G29G05G20G13G11G15G07G18G06G30
 111877004.376 8  87176983.32947                  21289474.445    21289484.242
        49.300          46.600
 106256553.892 8  82797453.60348                  20219911.125    20219920.512
        52.100          53.000
 109487856.772 8  85315312.59946                  20834803.398    20834812.141
        49.800          40.700
 115772919.046 7  90212709.60945                  22030825.719    22030836.102
        46.300          31.900
 116315513.501 7  90635553.75245                  22134061.531    22134073.027
        47.800          35.000
 125591339.793 6  97863455.58845                  23899216.125    23899232.254
        39.500          32.700
 134270675.777 5 104626598.65842                  25550871.742    25550882.594
        33.700          17.800
 131059241.951 5                                  24939739.211
        33.100
 129721237.761 5 101081655.70343                  24685099.602    24685114.734
        34.800          23.600
 133404932.027 5                                  25386113.891
        32.000
 25  3 19  0  6 30.0000000  0 10G29G05G20G13G11G15G07G18G06G30
 111836180.221 8  87145172.34347                  21281705.625    21281715.656
        48.000          46.700
 106240651.126 8  82785061.89648                  20216884.977    20216894.012
        51.300          53.200
 109536212.366 8  85352992.28546                  20844004.422    20844013.984
        48.400          39.900
 115675739.691 7  90136985.57745                  22012332.672    22012343.172
        45.900          30.400
 116383869.912 7  90688818.43545                  22147069.453    22147080.129
        47.400          35.400
 125470021.654 6  97768922.28245                  23876130.211    23876145.461
        41.000          33.000
 134241287.483 5 104603698.68443                  25545281.664    25545290.875
        35.800          18.300
 130963291.937 5                                  24921481.289
        33.900
 129812332.569 5 101152638.54243                  24702434.383    24702450.102
        35.200          22.000
 133340103.66814                                  25373774.531
        29.900
 25  3 19  0  7  0.0000000  0 10G29G05G20G13G11G15G07G18G06G30
 111795911.452 8  87113794.12247                  21274043.008    21274052.863
        49.100          47.100
 106225183.157 8  82773008.89848                  20213941.555    20213950.355
        52.800          53.200
 109584847.369 8  85390889.71846                  20853260.086    20853268.945
        48.600          40.200
 115578906.686 7  90061531.43545                  21993906.039    21993915.895
        45.300          30.500
 116452482.257 8  90742282.57045                  22160126.688    22160136.895
        48.200          35.800
 125348788.248 7  97674454.99045                  23853058.977    23853075.047
        42.000          34.000
 134212285.233 6 104581099.53443                  25539761.641    25539771.555
        36.200          20.600
 130867335.970 5                                  24903222.359
        33.300
 129903529.289 5 101223700.80543                  24719788.734    24719804.102
        35.000          22.500
 133275488.09014                                  25361479.742
        29.400
 25  3 19  0  7 30.0000000  0  9G29G05G20G13G11G15G07G18G06
 111756199.790 8  87082850.00047                  21266486.016    21266495.930
        48.800          46.500
 106210149.721 8  82761294.52948                  20211081.164    20211089.965
        52.200          53.100
 109633760.546 8  85429003.89846                  20862567.945    20862576.746
        48.900          39.500
 115482423.652 7  89986349.97845                  21975545.922    21975556.422
        46.400          30.700
 116521350.159 7  90795945.82745                  22173231.563    22173241.652
        47.900          35.800
 125227642.628 6  97580056.10845                  23830005.828    23830021.137
        41.900          34.400
 134183670.643 5 104558802.48543                  25534313.758    25534325.605
        35.500          19.000
 130771374.97315                                  24884959.797
        32.200
 129994827.448 5 101294842.09843                  24737159.258    24737177.203
        33.000          22.200
 25  3 19  0  8  0.0000000  0  9G29G05G20G13G11G15G07G18G06
 111717048.020 8  87052342.16247                  21259035.984    21259045.371
        48.700          46.700
 106195551.280 8  82749919.18348                  20208303.094    20208311.777
        52.200          53.100
 109682951.384 8  85467334.48646                  20871928.266    20871936.715
        48.300          40.200
 115386294.491 7  89911444.28145                  21957253.563    21957263.418
        46.900          30.600
 116590474.113 8  90849808.59745                  22186385.586    22186395.617
        48.200          35.500
 125106588.262 7  97485728.33445                  23806970.625    23806984.996
        42.600          34.600
 134155445.926 6 104536809.31643                  25528946.359    25528954.398
        36.800          20.400
 130675410.62015                                  24866701.016
        32.500
 130086227.466 5 101366062.80543                  24754551.922    24754569.750
        32.800          22.200
 25  3 19  0  8 30.0000000  0  9G29G05G20G13G11G15G07G18G06
 111678456.566 7  87022270.95747                  21251692.086    21251701.414
        47.900          46.800
 106181386.252 8  82738881.56448                  20205607.344    20205615.910
        52.500          53.100
 109732417.385 8  85505879.43446                  20881341.734    20881350.242
        48.100          40.800
 115290521.071 7  89836815.77945                  21939027.266    21939037.531
        45.500          30.600
 116659852.416 7  90903869.56445                  22199587.523    22199597.848
        47.900          35.700
 124985626.411 6  97391472.62845                  23783951.797    23783966.930
        41.900          34.000
 134127611.405 6 104515120.01143                  25523648.773    25523658.043
        36.800          21.500
 130579442.80715                                  24848438.594
        32.900
 130177727.475 5 101437361.36043                  24771963.500    24771981.914
        31.200          21.100
 25  3 19  0  9  0.0000000  0  9G29G05G20G13G11G15G07G18G06
 111640427.604 8  86992638.05647                  21244455.367    21244464.637
        48.100          46.700
 106167654.679 8  82728181.68948                  20202994.188    20203002.813
        51.800          53.000
 109782157.824 8  85544638.29046                  20890806.977    20890815.367
        48.100          40.600
 115195107.191 7  89762467.43845                  21920870.805    21920880.602
        46.300          30.500
 116729485.059 8  90958128.71645                  22212837.906    22212848.523
        48.400          35.800
 124864760.073 7  97297291.36645                  23760951.547    23760965.742
        42.500          34.800
 134100169.059 6 104493736.43643                  25518427.891    25518436.457
        37.000          22.200
 130483472.70015                                  24830175.359
        33.200
 130269327.463 5 101508737.85643                  24789395.445    24789413.449
        33.200          21.800
 25  3 19  0  9 30.0000000  0  9G29G05G20G13G11G15G07G18G06
 111602962.734 8  86963444.70947                  21237325.656    21237335.629
        48.200          46.800
 106154355.605 8  82717818.72048                  20200463.320    20200472.414
        52.100          53.000
 109832171.491 8  85583610.06046                  20900324.328    20900333.188
        48.300          40.400
 115100055.960 7  89688401.68045                  21902783.219    21902793.016
        46.300          30.300
 116799371.377 8  91012585.53946                  22226136.977    22226146.949
        48.000          36.000
 124743991.735 7  97203186.46545                  23737969.875    23737984.129
        42.100          34.700
 134073120.381 6 104472659.54443                  25513278.852    25513289.352
        36.700          21.700
 130387501.021 5 101600682.37452                  24811912.531    24811925.609
        35.500          16.300
 130361026.532 5 101580191.57543                  24806845.242    24806862.777
        32.800          21.700
 25  3 19  0 10  0.0000000  0  9G29G05G20G13G11G15G07G18G06
 111566064.588 7  86934692.96547                  21230304.242    21230314.273
        47.600          47.100
 106141490.866 8  82707794.38748                  20198015.438    20198024.355
        52.200          53.200
 109882458.537 8  85622794.84146                  20909893.391    20909902.074
        48.400          40.200
 115005371.100 7  89614621.39845                  21884764.977    21884774.539
        46.400          30.200
 116869511.862 7  91067240.41145                  22239484.734    22239495.059
        47.600          35.900
 124623324.937 7  97109160.67745                  23715008.117    23715021.430
        42.700          34.400
 134046467.605 5 104451891.17743                  25508205.641    25508216.961
        35.900          20.900
 130291529.650 5 101525899.59542                  24793649.234    24793663.313
        35.800          16.900
 130452825.209 5 101651722.79043                  24824313.898    24824332.371
        33.400          22.500
 25  3 19  0 10 30.0000000  0  9G29G05G20G13G11G15G07G18G06
 111529733.836 8  86906383.34247                  21223390.875    21223400.906
        48.100          46.800
 106129057.356 8  82698106.13348                  20195649.383    20195658.535
        51.700          53.200
 109933015.626 8  85662190.04846                  20919513.859    20919522.953
        48.000          40.600
 114911054.654 7  89541128.17945                  21866817.930    21866827.141
        46.900          30.800
 116939904.962 7  91122092.12245                  22252879.867    22252890.367
        47.600          35.500
 124502761.308 7  97015215.27945                  23692065.000    23692079.313
        42.700          34.700
 134020211.322 5 104431431.67543                  25503208.305    25503221.559
        34.100          20.600
 130195558.451 6 101451116.91942                  24775385.852    24775400.223
        37.100          17.400
 130544721.909 6 101723330.44943                  24841803.055    24841819.535
        36.200          23.500
 25  3 19  0 11  0.0000000  0 10G29G05G20G13G11G15G07G18G06G30
 111493972.239 7  86878517.20547                  21216585.609    21216595.172
        47.900          46.900
 106117054.860 8  82688753.60948                  20193365.203    20193374.297
        51.700          53.100
 109983842.440 7  85701795.41146                  20929186.461    20929194.266
        47.500          40.100
 114817110.101 7  89467924.75445                  21848940.328    21848949.891
        46.400          30.400
 117010550.328 8  91177140.40745                  22266324.070    22266334.160
        48.800          35.200
 124382303.264 7  96921352.14945                  23669142.367    23669156.324
        42.600          34.900
 133994352.916 5 104411282.17943                  25498291.070    25498299.578
        34.900          19.900
 130099588.407 6 101376335.10843                  24757124.766    24757137.551
        37.500          18.600
 130636716.137 6 101795014.11344                  24859310.117    24859325.836
        37.400          26.900
 132766522.03315 103454498.84252                  25264633.297    25264645.496
        31.800          16.900
 25  3 19  0 11 30.0000000  0 10G29G05G20G13G11G15G07G18G06G30
 111458781.125 8  86851095.60447                  21209888.539    21209899.098
        49.300          47.000
 106105483.212 8  82679736.74948                  20191163.047    20191171.848
        51.200          53.200
 110034937.226 7  85741609.58146                  20938909.195    20938917.469
        47.500          40.200
 114723540.485 7  89395013.48145                  21831133.688    21831144.246
        45.200          30.400
 117081447.481 8  91232384.89045                  22279815.180    22279824.801
        48.800          35.300
 124261953.446 7  96827573.35745                  23646240.633    23646253.887
        42.300          34.500
 133968893.88315                                  25493442.273
        32.400
 130003620.377 6 101301554.81842                  24738862.453    24738875.590
        37.000          16.300
 130728807.256 6 101866773.27644                  24876834.703    24876851.242
        37.900          28.900
 132703944.48815 103405737.21652                  25252725.219    25252738.297
        32.400          17.800
 25  3 19  0 12  0.0000000  0 10G29G05G20G13G11G15G07G18G06G30
 111424162.917 8  86824120.41847                  21203301.703    21203310.680
        48.600          47.300
 106094343.000 8  82671056.15448                  20189043.250    20189051.992
        51.500          53.300
 110086299.871 8  85781632.45346                  20948683.180    20948691.922
        49.400          40.300
 114630349.485 7  89322397.23145                  21813400.195    21813410.520
        46.100          30.000
 117152596.595 8  91287825.70245                  22293354.156    22293364.422
        48.400          35.500
 124141715.220 7  96733881.50745                  23623359.836    23623372.855
        42.700          34.100
 133943836.16315 104371918.43252                  25488675.289    25488686.844
        32.400          17.800
 129907656.084 6 101226777.50742                  24720601.234    24720613.668
        36.200          15.600
 130820995.423 6 101938608.06144                  24894377.984    24894394.230
        37.900          28.600
 132641607.17014 103357162.80152                  25240859.188    25240877.484
        29.600          17.400
 25  3 19  0 12 30.0000000  0 10G29G05G20G13G11G15G07G18G06G30
 111390118.966 8  86797592.70747                  21196822.844    21196832.172
        48.100          46.900
 106083632.871 8  82662710.58748                  20187005.281    20187014.551
        52.000          53.300
 110137928.818 8  85821862.83446                  20958507.914    20958516.188
        49.200          40.600
 114537540.101 7  89250078.33745                  21795739.141    21795749.055
        46.300          30.200
 117223996.928 7  91343462.26945                  22306940.828    22306951.152
        47.800          34.200
 124021591.022 7  96640278.52945                  23600500.602    23600513.797
        42.200          34.200
 133919180.33015 104352706.00652                  25483983.695    25483995.191
        32.400          17.800
 129811696.132 6 101152003.60042                  24702340.063    24702352.496
        36.500          17.400
 130913279.734 6 102010517.74744                  24911938.773    24911955.957
        38.600          27.900
 132579512.595 5 103308777.48643                  25229044.305    25229062.367
        32.600          19.900
 25  3 19  0 13  0.0000000  0 10G29G05G20G13G11G15G07G18G06G30
 111356650.164 8  86771513.18347                  21190453.922    21190463.426
        49.100          47.200
 106073351.614 8  82654699.21248                  20185048.758    20185057.676
        51.500          53.500
 110189822.255 8  85862299.29746                  20968382.633    20968391.023
        49.500          39.700
 114445114.816 7  89178058.73745                  21778151.094    21778161.066
        46.400          30.900
 117295647.272 7  91399293.66545                  22320575.508    22320585.832
        47.000          34.900
 123901582.855 6  96546765.95745                  23577663.289    23577676.719
        41.600          34.200
 133894927.956 5 104333808.00243                  25479370.664    25479379.641
        35.400          19.900
 129715740.865 6 101077233.36542                  24684080.109    24684092.953
        37.400          16.900
 131005659.025 6 102082501.44544                  24929516.313    24929534.727
        37.100          27.700
 132517662.797 5 103260582.95343                  25217276.594    25217291.668
        34.300          21.700
 25  3 19  0 13 30.0000000  0 10G29G05G20G13G11G15G07G18G06G30
 111323758.359 8  86745883.26647                  21184195.273    21184204.777
        48.800          47.100
 106063499.476 8  82647022.21348                  20183173.656    20183182.867
        50.800          53.100
 110241979.110 8  85902941.02446                  20978307.594    20978315.867
        48.300          40.300
 114353076.722 7  89106340.86045                  21760636.828    21760646.391
        46.600          30.600
 117367547.206 7  91455319.52945                  22334258.039    22334268.480
        47.400          34.400
 123781693.234 7  96453345.75045                  23554849.328    23554862.699
        42.200          34.400
 133871080.583 5 104315225.66743                  25474831.164    25474842.426
        34.200          19.300
 129619791.255 6 101002467.47442                  24665822.164    24665834.188
        37.400          15.600
 131098132.740 6 102154558.74644                  24947114.461    24947131.762
        38.400          27.300
 132456060.507 6 103212581.21644                  25205554.453    25205569.996
        36.900          24.400
 25  3 19  0 14  0.0000000  0 10G29G05G20G13G11G15G07G18G06G30
 111291444.748 8  86720703.89547                  21178045.688    21178055.016
        48.500          47.000
 106054075.959 8  82639679.28448                  20181380.656    20181389.809
        51.400          53.400
 110294397.852 8  85943786.81646                  20988283.000    20988291.156
        49.400          39.900
 114261429.156 7  89034927.28645                  21743196.703    21743206.676
        47.000          31.100
 117439696.478 7  91511539.69045                  22347987.094    22347997.945
        46.700          34.100
 123661924.878 7  96360020.04645                  23532058.008    23532070.500
        42.000          34.000
 133847639.127 5 104296959.59143                  25470371.930    25470382.195
        34.400          19.000
 129523848.553 6 100927706.95242                  24647563.703    24647577.191
        36.800          16.300
 131190700.516 6 102226689.29844                  24964731.180    24964747.484
        40.100          28.600
 132394708.396 6 103164774.45944                  25193880.172    25193895.422
        38.300          24.900
 25  3 19  0 14 30.0000000  0 10G29G05G20G13G11G15G07G18G06G30
 111259711.455 8  86695976.71147                  21172006.820    21172016.910
        48.800          47.000
 106045080.589 8  82632670.03548                  20179668.734    20179677.711
        51.400          53.400
 110347078.213 8  85984836.45546                  20998307.742    20998315.547
        49.200          39.700
 114170175.486 7  88963820.63845                  21725831.594    21725841.391
        47.300          31.000
 117512094.885 7  91567953.98945                  22361763.789    22361775.227
        46.800          34.100
 123542280.750 7  96266791.13345                  23509289.328    23509303.051
        42.100          33.900
 133824605.669 5 104279011.50543                  25465988.359    25465998.918
        34.800          20.100
 129427913.901 6 100852952.74842                  24629307.648    24629320.492
        36.000          16.300
 131283362.084 6 102298892.98444                  24982362.383    24982380.270
        38.800          29.900
 132333609.612 6 103117165.13344                  25182253.695    25182269.297
        38.400          26.200
 25  3 19  0 15  0.0000000  0 10G29G05G20G13G11G15G07G18G06G30
 111228559.657 8  86671702.63347                  21166079.172    21166088.734
        49.200          46.700
 106036512.632 8  82625993.76648                  20178038.164    20178046.730
        51.700          53.400
 110400018.466 8  86026088.60646                  21008381.547    21008390.113
        49.600          39.000
 114079318.136 8  88893022.80845                  21708542.711    21708551.805
        48.400          32.100
 117584741.457 7  91624561.65645                  22375587.805    22375598.656
        46.100          33.700
 123422763.150 7  96173660.81645                  23486546.703    23486559.195
        42.900          34.300
 133801981.340 5 104261382.25443                  25461681.945    25461694.145
        33.600          19.600
 129331987.957 5 100778205.34442                  24611054.172    24611065.961
        35.700          16.300
 131376116.399 6 102371168.93244                  25000013.383    25000030.391
        38.600          28.300
 132272766.251 6 103069754.79843                  25170675.406    25170690.891
        37.300          23.500
 25  3 19  0 15 30.0000000  0 10G29G05G20G13G11G15G07G18G06G30
 111197991.310 8  86647883.16647                  21160261.664    21160271.344
        49.100          46.800
 106028371.772 8  82619650.27548                  20176489.086    20176497.828
        51.500          53.500
 110453217.854 8  86067542.67446                  21018505.047    21018513.086
        49.100          40.200
 113988860.872 7  88822536.74045                  21691329.250    21691338.402
        47.100          31.500
 117657636.226 7  91681362.72945                  22389459.438    22389470.465
        46.400          33.700
 123303375.227 7  96080631.55545                  23463826.578    23463840.656
        42.100          34.000
 133779767.220 5 104244072.63943                  25457451.453    25457466.117
        31.000          18.600
 129236072.126 5 100703465.84142                  24592801.453    24592813.652
        34.700          16.300
 131468963.457 6 102443517.16044                  25017682.656    25017698.668
        38.100          29.100
 132212181.502 6 103022545.97043                  25159143.516    25159160.934
        36.000          22.200
 25  3 19  0 16  0.0000000  0 10G29G05G20G13G11G15G07G18G06G30
 111168008.007 8  86624519.57347                  21154556.625    21154565.660
        49.500          46.800
 106020657.821 8  82613639.45048                  20175020.820    20175029.680
        51.900          53.400
 110506675.465 8  86109197.95046                  21028677.664    21028685.879
        49.400          38.900
 113898806.954 8  88752364.94945                  21674191.648    21674201.563
        48.200          32.700
 117730778.852 7  91738356.92245                  22403378.336    22403389.539
        46.600          33.400
 123184119.675 7  95987705.43245                  23441133.836    23441146.270
        43.600          33.800
 133757965.566 5 104227084.40842                  25453304.156    25453317.234
        31.300          17.800
 129140167.714 6 100628735.27842                  24574551.625    24574564.586
        37.500          17.800
 131561902.763 6 102515937.26944                  25035368.320    25035385.211
        37.700          28.000
 132151858.204 6 102975540.83844                  25147666.281    25147681.531
        38.100          24.500
 25  3 19  0 16 30.0000000  0 10G29G05G20G13G11G15G07G18G06G30
 111138610.798 8  86601612.68447                  21148962.023    21148971.645
        49.100          46.700
 106013369.165 8  82607960.00948                  20173633.984    20173642.902
        52.700          53.500
 110560389.328 8  86151052.90646                  21038899.008    21038907.633
        49.900          39.200
 113809158.530 8  88682509.14945                  21657132.500    21657141.711
        48.000          33.200
 117804168.070 7  91795543.26845                  22417343.984    22417355.012
        47.200          33.600
 123064998.450 7  95894883.97745                  23418465.656    23418478.266
        43.300          34.600
 133736576.267 5 104210417.54842                  25449237.109    25449246.848
        33.000          17.400
 129044274.858 6 100554013.66542                  24556303.031    24556316.344
        36.600          17.400
 131654933.018 6 102588428.23444                  25053070.859    25053087.750
        37.500          26.500
 132091798.210 6 102928740.92244                  25136237.320    25136252.980
        37.900          24.700
 25  3 19  0 17  0.0000000  0 10G29G05G20G13G11G15G07G18G06G30
 111109800.257 8  86579162.93147                  21143479.648    21143489.211
        49.700          47.000
 106006505.436 8  82602611.68348                  20172328.078    20172336.762
        52.600          53.800
 110614358.361 8  86193106.69346                  21049168.992    21049177.500
        49.300          39.100
 113719918.995 8  88612971.95745                  21640150.445    21640159.832
        48.000          33.500
 117877803.399 7  91852921.38445                  22431356.258    22431366.816
        45.800          34.000
 122946014.201 7  95802169.25745                  23395823.344    23395835.953
        43.400          33.500
 133715600.95514                                  25445239.789
        26.800
 128948394.622 6 100479301.95842                  24538058.031    24538071.168
        37.700          17.400
 131748053.711 6 102660989.67344                  25070790.602    25070808.781
        36.700          26.600
 132032004.211 6 102882148.27044                  25124858.570    25124874.172
        36.900          24.800
 25  3 19  0 17 30.0000000  0 10G29G05G20G13G11G15G07G18G06G30
 111081578.370 8  86557171.85647                  21138109.117    21138118.621
        48.800          47.200
 106000066.469 8  82597594.28348                  20171102.766    20171110.980
        52.900          53.500
 110668581.472 8  86235358.45746                  21059487.414    21059495.980
        49.400          39.800
 113631091.599 8  88543755.91645                  21623247.102    21623256.957
        48.200          33.700
 117951684.541 7  91910491.04145                  22445415.188    22445426.098
        46.100          32.700
 122827169.842 7  95709563.54545                  23373206.797    23373220.285
        42.200          33.700
 133695041.11215 104178052.71752                  25441329.844    25441343.508
        31.600          17.800
 128852528.325 6 100404601.06343                  24519815.102    24519828.063
        38.500          18.300
 131841264.425 6 102733621.27044                  25088528.508    25088545.516
        36.700          25.300
 131972479.022 6 102835765.05944                  25113530.797    25113546.398
        37.300          25.000
 25  3 19  0 18  0.0000000  0 10G29G05G20G13G11G15G07G18G06G30
 111053946.922 8  86535640.87147                  21132851.477    21132860.746
        48.800          47.400
 105994052.103 8  82592907.80248                  20169958.195    20169967.113
        52.000          53.700
 110723057.771 8  86277807.50046                  21069854.328    21069862.250
        48.800          39.500
 113542679.165 8  88474863.21645                  21606422.617    21606432.414
        48.100          33.800
 118025811.242 7  91968252.04345                  22459521.492    22459531.875
        45.800          32.300
 122708468.148 7  95617068.99145                  23350618.078    23350630.922
        42.100          32.800
 133674897.415 5 104162356.44743                  25437495.297    25437510.605
        30.800          18.600
 128756677.179 6 100329912.02842                  24501576.227    24501588.719
        37.600          17.400
 131934564.725 6 102806322.67744                  25106283.352    25106300.945
        37.600          26.900
 131913225.464 6 102789593.53044                  25102256.461    25102270.832
        38.100          26.700
 25  3 19  0 18 30.0000000  0 10G29G05G20G13G11G15G07G18G06G30
 111026906.792 8  86514570.66347                  21127706.000    21127715.211
        48.100          46.900
 105988461.373 8  82588551.44448                  20168894.219    20168902.902
        52.700          53.800
 110777786.119 8  86320452.94346                  21080268.531    21080276.980
        50.200          39.200
 113454684.545 8  88406296.07945                  21589677.656    21589687.688
        48.100          34.300
 118100182.628 7  92026203.72345                  22473672.797    22473685.055
        45.900          31.900
 122589911.511 7  95524687.45545                  23328057.883    23328070.727
        42.300          33.700
 133655171.523 5 104146985.77743                  25433745.313    25433756.633
        35.700          21.300
 128660842.034 6 100255235.45542                  24483337.594    24483351.023
        36.900          17.800
 132027953.811 6 102879093.31244                  25124053.859    25124072.449
        37.500          26.000
 131854245.801 6 102743635.41944                  25091032.758    25091048.242
        37.600          26.400
 25  3 19  0 19  0.0000000  0 10G29G05G20G13G11G15G07G18G06G30
 111000459.103 8  86493962.08947                  21122673.047    21122681.789
        49.700          47.300
 105983292.713 8  82584523.95348                  20167910.531    20167919.684
        51.900          53.500
 110832764.422 8  86363293.16346                  21090730.641    21090739.031
        49.500          39.200
 113367110.552 7  88338056.69245                  21573012.391    21573022.305
        47.600          34.000
 118174797.816 7  92084345.35945                  22487872.648    22487883.734
        45.600          32.300
 122471502.114 6  95432420.64945                  23305524.344    23305537.773
        41.600          33.600
 133635864.221 5 104131941.27543                  25430071.773    25430082.449
        35.400          22.200
 128565023.263 6 100180571.65443                  24465105.711    24465117.617
        37.100          18.600
 132121430.649 6 102951932.30344                  25141845.461    25141861.063
        38.800          26.400
 131795542.359 6 102697892.56644                  25079861.891    25079876.145
        37.400          27.900
 25  3 19  0 19 30.0000000  0 10G29G05G20G13G11G15G07G18G06G30
 110974605.171 8  86473816.18547                  21117752.992    21117762.438
        49.400          47.300
 105978545.850 8  82580825.10948                  20167007.398    20167016.199
        52.300          53.800
 110887991.809 8  86406327.46046                  21101239.875    21101248.324
        49.300          39.200
 113279960.047 8  88270147.30145                  21556428.875    21556438.555
        48.100          34.900
 118249656.278 7  92142676.55745                  22502117.852    22502128.469
        47.300          32.200
 122353242.471 6  95340270.53745                  23283020.664    23283033.215
        41.900          34.000
 133616976.714 6 104117223.93543                  25426475.898    25426487.629
        36.300          19.900
 128469221.984 5 100105921.50242                  24446874.453    24446887.414
        35.200          17.800
 132214994.662 6 103024839.20244                  25159648.039    25159665.984
        37.200          26.200
 131737117.676 5 102652366.89844                  25068742.086    25068758.156
        35.300          25.800
 25  3 19  0 20  0.0000000  0 10G29G05G20G13G11G15G07G18G06G30
 110949346.671 8  86454134.25047                  21112946.406    21112955.793
        49.000          47.400
 105974221.164 8  82577455.25248                  20166184.352    20166192.801
        52.000          53.500
 110943467.692 8  86449555.40246                  21111796.680    21111805.188
        49.200          38.900
 113193236.654 8  88202570.72045                  21539925.563    21539934.891
        48.000          35.000
 118324758.016 7  92201197.33345                  22516410.031    22516420.473
        46.600          33.000
 122235135.915 6  95248239.70045                  23260545.242    23260557.910
        41.800          33.700
 133598510.270 5 104102834.67043                  25422958.305    25422973.438
        32.500          19.000
 128373440.106 6 100031286.49142                  24428648.109    24428660.719
        36.400          17.800
 132308645.822 6 103097814.01144                  25177469.805    25177486.344
        36.300          27.400
 131678975.016 6 102607061.04744                  25057678.656    25057694.258
        36.100          28.200
 25  3 19  0 20 30.0000000  0 10G29G05G20G13G11G15G07G18G06G30
 110924684.872 8  86434917.26147                  21108253.148    21108262.594
        48.600          47.200
 105970317.464 8  82574413.48348                  20165441.164    20165450.258
        51.700          53.500
 110999190.847 8  86492976.01546                  21122400.313    21122409.113
        49.300          38.900
 113106943.262 7  88135329.20845                  21523504.484    21523514.164
        47.600          34.600
 118400102.389 7  92259907.14745                  22530747.117    22530757.793
        46.400          32.000
 122117185.086 7  95156330.21545                  23238100.000    23238112.434
        42.000          33.600
 133580466.592 5 104088774.78543                  25419525.492    25419539.508
        32.200          19.000
 128277678.144 5  99956666.89243                  24410424.344    24410437.949
        35.700          18.600
 132402383.360 6 103170856.10244                  25195308.094    25195322.816
        37.300          27.300
 131621116.613 6 102561976.65344                  25046669.711    25046684.023
        37.500          29.100
 25  3 19  0 21  0.0000000  0 10G29G05G20G13G11G15G07G18G06G30
 110900621.092 8  86416166.27147                  21103674.289    21103683.500
        49.300          47.200
 105966834.251 8  82571699.32548                  20164778.680    20164787.246
        52.300          53.500
 111055159.904 8  86536588.24746                  21133050.883    21133059.215
        48.400          38.800
 113021082.788 8  88068425.02145                  21507165.500    21507175.355
        48.400          34.800
 118475688.758 7  92318805.55545                  22545130.023    22545141.813
        46.300          31.900
 121999392.432 7  95064543.95345                  23215684.813    23215697.305
        42.700          34.300
 133562846.472 5 104075044.96442                  25416174.367    25416186.215
        35.500          17.800
 128181937.225 6  99882063.67843                  24392205.219    24392218.941
        36.500          19.000
 132496206.539 5 103243964.97944                  25213161.094    25213177.223
        34.700          24.400
 131563545.080 6 102517115.76344                  25035713.063    25035727.902
        37.200          27.600
 25  3 19  0 21 30.0000000  0 10G29G05G20G13G11G15G07G18G06G30
 110877156.072 8  86397881.85047                  21099209.297    21099218.215
        48.900          47.500
 105963770.992 8  82569312.38248                  20164195.719    20164203.934
        51.500          53.500
 111111373.851 8  86580391.30446                  21143748.289    21143757.090
        48.000          38.300
 112935657.845 8  88001860.20545                  21490910.430    21490919.406
        48.500          35.500
 118551516.397 7  92377891.96145                  22559560.570    22559570.836
        46.400          33.000
 121881760.270 7  94972882.74045                  23193300.086    23193312.402
        42.600          35.000
 133545650.602 6 104061645.86043                  25412903.141    25412913.230
        37.200          21.100
 128086218.500 6  99807477.80043                  24373989.078    24374004.270
        36.100          18.600
 132590114.654 5 103317140.01343                  25231031.383    25231047.219
        35.500          22.900
 131506262.804 6 102472480.28944                  25024813.352    25024827.664
        38.200          29.100
 25  3 19  0 22  0.0000000  0 10G29G05G20G13G11G15G07G18G06G30
 110854290.805 8  86380064.76647                  21094857.938    21094867.090
        49.700          47.300
 105961126.010 8  82567251.35348                  20163692.297    20163701.098
        52.300          53.400
 111167831.100 8  86624383.94846                  21154491.188    21154499.754
        48.000          38.600
 112850671.207 8  87935636.93445                  21474737.523    21474747.086
        48.000          35.700
 118627584.484 7  92437165.72145                  22574036.328    22574046.418
        47.100          32.600
 121764291.115 7  94881348.53645                  23170946.516    23170958.598
        42.600          35.100
 133528879.797 6 104048577.91543                  25409711.063    25409722.207
        37.600          20.400
 127990522.840 6  99732910.03443                  24355781.063    24355793.906
        37.500          20.600
 132684106.752 6 103390380.50743                  25248919.211    25248933.699
        36.600          22.200
 131449272.078 6 102428072.01644                  25013967.516    25013983.410
        37.200          26.200
 25  3 19  0 22 30.0000000  0 10G29G05G20G13G11G15G07G18G06G30
 110832026.801 8  86362716.19747                  21090620.922    21090630.719
        50.000          47.200
 105958899.511 8  82565516.38948                  20163268.828    20163277.512
        52.700          53.600
 111224530.911 8  86668565.60046                  21165280.797    21165290.184
        48.300          38.800
 112766126.078 8  87869757.69645                  21458648.820    21458658.969
        48.200          35.200
 118703892.831 7  92496626.70445                  22588556.375    22588567.109
        46.000          31.900
 121646987.877 7  94789943.62145                  23148624.344    23148636.719
        43.000          34.900
 133512535.962 6 104035842.60243                  25406600.922    25406610.836
        37.200          18.600
 127894851.428 5  99658361.11543                  24337573.703    24337587.367
        35.300          18.600
 132778182.634 5 103463686.30443                  25266820.305    25266835.672
        35.500          22.800
 131392575.813 6 102383893.17444                  25003177.930    25003193.473
        36.100          25.300
 25  3 19  0 23  0.0000000  0 10G29G05G20G13G11G15G07G18G06G30
 110810365.133 8  86345836.99447                  21086498.727    21086508.465
        49.500          47.100
 105957090.973 8  82564107.13348                  20162924.695    20162933.203
        52.100          53.500
 111281471.909 7  86712935.15746                  21176116.438    21176125.297
        47.900          37.900
 112682025.409 8  87804224.78645                  21442645.180    21442654.742
        48.600          35.200
 118780440.783 7  92556274.38045                  22603123.484    22603133.809
        47.000          32.800
 121529853.302 7  94698670.12045                  23126333.773    23126346.617
        43.600          35.300
 133496619.810 6 104023440.57943                  25403571.508    25403581.715
        37.300          21.500
 127799205.141 6  99583831.74043                  24319373.578    24319387.125
        36.900          20.400
 132872341.569 6 103537056.81944                  25284739.508    25284753.465
        36.300          25.400
 131336176.485 6 102339945.75744                  24992446.477    24992461.082
        36.900          26.900
 25  3 19  0 23 30.0000000  0 10G29G05G20G13G11G15G07G18G06G30
 110789307.188 8  86329428.22347                  21082491.805    21082501.250
        49.500          47.300
 105955698.962 8  82563022.46548                  20162659.594    20162667.984
        51.400          53.600
 111338652.980 8  86757491.78646                  21186997.961    21187006.879
        48.000          38.200
 112598372.215 7  87739040.55145                  21426726.203    21426736.117
        47.800          35.200
 118857227.677 7  92616108.25345                  22617735.805    22617746.480
        47.000          32.500
 121412889.992 7  94607530.06246                  23104076.797    23104089.113
        43.500          36.000
 133481132.109 6 104011372.45143                  25400625.047    25400634.141
        37.800          21.500
 127703585.247 6  99509322.93143                  24301176.625    24301190.996
        37.500          20.400
 132966582.796 6 103610491.46943                  25302673.016    25302687.680
        36.900          22.900
 131280076.571 5 102296231.64644                  24981770.313    24981785.504
        35.700          26.200
 25  3 19  0 24  0.0000000  0 10G29G05G20G13G11G15G07G18G06G30
 110768853.743 8  86313490.48647                  21078599.922    21078609.016
        49.300          47.700
 105954723.090 8  82562262.08648                  20162474.008    20162482.340
        51.300          53.700
 111396072.828 7  86802234.49646                  21197924.203    21197933.707
        47.400          38.600
 112515169.424 8  87674207.29245                  21410893.453    21410903.016
        48.100          35.300
 118934252.944 7  92676127.86145                  22632393.203    22632403.293
        47.300          32.800
 121296100.489 7  94516525.42946                  23081852.672    23081864.227
        43.400          36.200
 133466074.122 6 103999639.10443                  25397758.523    25397769.316
        37.900          22.500
 127607992.905 6  99434835.69043                  24282986.953    24283000.090
        38.100          20.600
 133060905.738 6 103683989.76143                  25320621.359    25320637.430
        36.000          23.000
 131224278.400 6 102252752.62444                  24971152.375    24971167.391
        37.200          27.200
 25  3 19  0 24 30.0000000  0 10G29G05G20G13G11G15G07G18G06G30
 110749006.170 8  86298024.85747                  21074823.328    21074831.543
        49.600          47.800
 105954163.699 8  82561826.23348                  20162367.641    20162376.090
        51.200          53.700
 111453731.104 7  86847162.98746                  21208897.086    21208905.828
        47.600          38.200
 112432418.500 8  87609726.12745                  21395146.320    21395155.883
        48.600          35.500
 119011516.402 7  92736333.06745                  22647095.242    22647106.563
        46.000          32.000
 121179487.894 7  94425658.64746                  23059661.625    23059673.824
        43.100          36.300
 133451446.986 6 103988241.48943                  25394974.586    25394985.086
        36.800          22.000
 127512429.554 6  99360371.01343                  24264802.273    24264815.059
        37.500          20.100
 133155310.193 5 103757551.56143                  25338584.859    25338602.570
        34.600          23.900
 131168785.083 5 102209511.14544                  24960592.977    24960607.406
        34.600          25.300
 25  3 19  0 25  0.0000000  0 10G29G05G20G13G11G15G07G18G06G30
 110729765.324 8  86283032.00247                  21071161.547    21071170.875
        49.800          47.400
 105954019.072 8  82561713.56048                  20162339.922    20162348.195
        51.100          53.500
 111511626.249 7  86892276.04946                  21219914.281    21219922.613
        47.900          38.400
 112350124.960 7  87545601.36745                  21379485.914    21379496.590
        47.000          35.400
 119089017.178 7  92796723.20845                  22661843.109    22661854.957
        46.000          31.700
 121063054.289 7  94334931.32346                  23037505.016    23037517.098
        43.700          36.400
 133437251.512 6 103977180.20743                  25392274.688    25392282.727
        39.800          21.800
 127416895.987 6  99285929.57943                  24246621.797    24246635.109
        38.400          20.600
 133249795.071 5 103831176.09143                  25356565.641    25356583.293
        35.400          23.200
 131113598.552 5 102166508.75143                  24950090.867    24950105.883
        34.300          23.200
 25  3 19  0 25 30.0000000  0 10G29G05G20G13G11G15G07G18G06G30
 110711132.483 8  86268512.91547                  21067615.383    21067624.828
        49.400          47.600
 105954289.200 8  82561924.06048                  20162391.383    20162399.949
        51.400          53.500
